{"type":"FeatureCollection","features":[{"type":"Feature","properties":{"address":"1-10 Greenwood Com","building_type":"House court","date":1958,"land_use":"Low Density Residential","dwelling_type":"Single family residences","notes":"Greenwood Commons is designated as a historical landmark. It was developed by architect William Wurster (yes, that Wurster) and the ten homes surrounding the green were built between 1952 and 1958.  Houses 3 and 10 are listed as condos on Zillow.  The 'common' parcel at the center of the houses is designated for use as \"Single Family Residential - planned development tract, common area or use\".","dwelling_type_notes":"Historical residential","more_info":"https://www.tclf.org/landscapes/greenwood-common"},"geometry":{"coordinates":[-122.25962374476148,37.88280576423027],"type":"Point"},"id":0},{"type":"Feature","properties":{"address":"2500-55 Rose Wk","building_type":"House court","date":1913,"land_use":"Low Density Residential","dwelling_type":"Single family residences","dwelling_type_notes":"Historical residential","notes":"Rose Walk is a designated historical landmark. Its development was led by architect Bernard Maybeck, but many other renowned local architects played a part in its design.  The parcel for 2055 Rose Wk has its use code listed as \"3 units, lesser quality or unknown legal\" thought it appears to be listed as a single family residence on Redfin.","more_info":"https://www.berkeleypaths.org/pathstories/2025/3/10/rose-walk-the-jewel-in-the-crown"},"geometry":{"coordinates":[-122.26119593810358,37.883139191907276],"type":"Point"}},{"type":"Feature","properties":{"address":"1739-59 Spruce St","building_type":"Apartment court","date":1938,"land_use":"Medium Density Residential","dwelling_type":"Apartment","dwelling_type_notes":"Multiple residential building of 5 or more units"},"geometry":{"coordinates":[-122.26509914775744,37.876098097212434],"type":"Point"}},{"type":"Feature","properties":{"address":"1504-08 Bonita Ave","building_type":"Apartment court","date":1924,"land_use":"Medium Density Residential","dwelling_type":"Apartment","dwelling_type_notes":"Multiple residential building of 5 or more units"},"geometry":{"coordinates":[-122.27294724410723,37.87925992867464],"type":"Point"}},{"type":"Feature","properties":{"address":"1920-38 California St, Berkeley Way 1538-44","building_type":"Apartment court","date":1923,"land_use":"Medium Density Residential","dwelling_type":"Apartment","dwelling_type_notes":"Multiple residential building of 5 or more units"},"geometry":{"coordinates":[-122.28018355412104,37.8712787626192],"type":"Point"}},{"type":"Feature","properties":{"address":"1600-22 Hearst Ave","building_type":"Apartment court","date":1929,"land_use":"Medium Density Residential","dwelling_type":"Apartment","dwelling_type_notes":"Multiple residential building of 5 or more units"},"geometry":{"coordinates":[-122.27965379643634,37.8721909312376],"type":"Point"}},{"type":"Feature","properties":{"address":"1472-78 University Ave","building_type":"Apartment court","date":1930,"land_use":"Avenue Commercial","dwelling_type":"Apartment","dwelling_type_notes":"Multiple residential building of 5 or more units","notes":"Fox Court is designated as a historical landmark. It was designed by Carl Fox.","more_info":"https://berkeleyheritage.com/berkeley_landmarks/fox_court.html"},"geometry":{"coordinates":[-122.28265202653519,37.87000186457345],"type":"Point"}},{"type":"Feature","properties":{"address":"1909-17 Sacramento St","building_type":"Courtyard duplexes","date":1943,"land_use":"Medium Density Residential","dwelling_type":"Multifamily Residence","dwelling_type_notes":"Double or duplex type - two units","notes":""},"geometry":{"coordinates":[-122.28179209920822,37.87177821737737],"type":"Point"}},{"type":"Feature","properties":{"address":"1775-87 Franklin St","building_type":"Courtyard duplexes","date":1943,"land_use":"Medium Density Residential","dwelling_type":"Multifamily Residence","dwelling_type_notes":"Double or duplex type - two units","notes":""},"geometry":{"coordinates":[-122.28557388205127,37.87300145947522],"type":"Point"}},{"type":"Feature","properties":{"address":"1135-39 Addison St","building_type":"Apartment court","date":1924,"land_use":"Medium Density Residential","dwelling_type":"Cooperative","dwelling_type_notes":"Cooperative units (undivided)","notes":"Addison Court Housing Cooperative is a limited equity housing cooperative managed by the Northern California Community Land Trust.","more_info":"https://www.nclt.org/addison-court"},"geometry":{"coordinates":[-122.29024218789299,37.868570727863144],"type":"Point"}},{"type":"Feature","properties":{"address":"1114-16 Dwight Way","building_type":"Apartment court","date":1925,"land_use":"Medium Density Residential","dwelling_type":"Multifamily Residence","dwelling_type_notes":"Triplex; Double or duplex with single family home","notes":"This property has a sign calling it the \"Dwight Way Courts\""},"geometry":{"coordinates":[-122.28863447508758,37.86101496780968],"type":"Point"}},{"type":"Feature","properties":{"address":"1315-21 Dwight Way","building_type":"Apartment court","date":1922,"land_use":"Medium Density Residential","dwelling_type":"Apartment","dwelling_type_notes":"Multiple residential building of 5 or more units","notes":"This property has a sign calling it the \"Berkeley Court Apartments\""},"geometry":{"coordinates":[-122.28540245163589,37.86212349748217],"type":"Point"}},{"type":"Feature","properties":{"address":"2431-35 Jefferson Ave","building_type":"Apartment court","date":1927,"land_use":"Medium Density Residential","dwelling_type":"Apartment","dwelling_type_notes":"Multiple residential building of 5 or more units","notes":"","more_info":""},"geometry":{"coordinates":[-122.27759304177388,37.86339621782676],"type":"Point"}},{"type":"Feature","properties":{"address":"2226-28 Dwight Way","building_type":"Apartment court","date":1922,"land_use":"Medium Density Residential","dwelling_type":"Apartment","dwelling_type_notes":"Multiple residential building of 5 or more units"},"geometry":{"coordinates":[-122.26390536632445,37.864205866395864],"type":"Point"}},{"type":"Feature","properties":{"address":"1625-27 Fairview St","building_type":"Apartment court","date":1919,"land_use":"Medium Density Residential","dwelling_type":"Apartment","dwelling_type_notes":"Multiple residential building of 5 or more units"},"geometry":{"coordinates":[-122.27502667185013,37.85033224468323],"type":"Point"}},{"type":"Feature","properties":{"address":"2444 Virginia St","building_type":"Apartment court","date":1932,"land_use":"Medium Density Residential","dwelling_type":"Condominium","dwelling_type_notes":"Single residential living unit"},"geometry":{"coordinates":[-122.26179563910844,37.87745765012045],"type":"Point"}}]}